{"poi":[{"id":"1","name":"Супермаркет Перла","type":"Магазин","description":"","latitude":"42.644653","longitude":"23.339647","image":"pic1.jpg","address":"ул.проф.Архитект Храбър Попов 14","working_hours":"понеделник - неделя 7:30-24:00","account":"Normal","phone":""},{"id":"2","name":"Супермаркет Рекорд","type":"Магазин","description":"","latitude":"42.643364","longitude":"23.338623","image":"pic2.jpg","address":"ул.проф.д-р Иван Странски","working_hours":"понеделник - неделя 8:00-24:00","account":"Normal","phone":""},{"id":"3","name":"Център за набор и печат","type":"Копирен център","description":"принтиране - 4 ст\nксерокс - 3 ст","latitude":"42.644600","longitude":"23.338320","image":"pic3.jpg","address":"ул.проф.Архитект Храбър Попов","working_hours":"понеделник - петък 9:00-21:00","account":"Normal","phone":""},{"id":"4","name":"Банкомат ProCredit Bank","type":"АТМ","description":"","latitude":"42.644669","longitude":"23.339851","image":"pic4.jpg","address":"ул.проф.Архитект Храбър Попов","working_hours":"non stop","account":"Normal","phone":""},{"id":"5","name":"Аптека","type":"Аптека","description":"","latitude":"42.642944","longitude":"23.341187","image":"pic5.jpg","address":"ул.проф.д-р Иван Странски","working_hours":"non stop","account":"Normal","phone":""},{"id":"6","name":"Банкомат Central Cooperative Bank","type":"АТМ","description":"","latitude":"42.643185","longitude":"23.339693","image":"pic6.jpg","address":"ул.проф.д-р Иван Странски","working_hours":"non stop","account":"Normal","phone":""},{"id":"7","name":"Копирен център The Net","type":"Копирен център","description":"","latitude":"42.642879","longitude":"23.339190","image":"pic7.jpg","address":"Студентски град блок 59","working_hours":"8:00 - 23:00","account":"Normal","phone":""},{"id":"8","name":"Дигитален копирен център Кинтек","type":"Копирен център","description":"Широкоформатно принтиране, сканиране и копиране","latitude":"42.642593","longitude":"23.342129","image":"pic8.jpg","address":"ул.акад. Борис Стефанов","working_hours":"8:00 - 22:00","account":"Normal","phone":""},{"id":"9","name":"Домашни потреби","type":"Железария","description":"","latitude":"42.642872","longitude":"23.340565","image":"pic9.jpg","address":"ул.проф.д-р Иван Странски","working_hours":"9:00 - 20:00","account":"Normal","phone":""},{"id":"10","name":"Ключар","type":"Ключар","description":"","latitude":"42.643753","longitude":"23.342022","image":"pic10.jpg","address":"ул.акад. Борис Стефанов","working_hours":"9:00 - 18:00","account":"Normal","phone":""},{"id":"11","name":"Банкомат ProCredit Bank","type":"АТМ","description":"","latitude":"42.649685","longitude":"23.341885","image":"pic11.jpg","address":"ул.акад. Борис Стефанов","working_hours":"non stop","account":"Normal","phone":""},{"id":"12","name":"Фантастико","type":"Магазин","description":"","latitude":"42.650181","longitude":"23.341599","image":"pic12.jpg","address":"ул.акад. Борис Стефанов №12","working_hours":"non stop","account":"Normal","phone":""},{"id":"13","name":"Copy center Fresh","type":"Копирен център","description":"Цветно копиране и принтиране","latitude":"42.644519","longitude":"23.340337","image":"pic13.jpg","address":"ул.проф. Архитект Храбър Попов","working_hours":"9:00 - 20:00","account":"Silver","phone":"082923152"},{"id":"14","name":"Ключар","type":"Ключар","description":"Ключарски услуги по домовете","latitude":"42.648457","longitude":"23.342226","image":"pic14.jpg","address":"ул.Атанас Манчев","working_hours":"9:00 - 20:00","account":"Silver","phone":"084523147"},{"id":"15","name":"Банкомат Post Bank","type":"ATM","description":"","latitude":"42.650642","longitude":"23.342103","image":"pic15.jpg","address":"ул.акад.Борис Стефанов","working_hours":"non stop","account":"normal","phone":""},{"id":"16","name":"Ключар","type":"Ключар","description":"","latitude":"42.651358","longitude":"23.343147","image":"pic16.jpg","address":"ул.8-ми декември 43","working_hours":"10:00 - 20:00","account":"normal","phone":""},{"id":"17","name":"Банкомат ОББ","type":"ATM","description":"","latitude":"42.652811","longitude":"23.342745","image":"pic17.jpg","address":"ул.акад.Борис Стефанов","working_hours":"non stop","account":"normal","phone":""},{"id":"18","name":"Супермаркет Рекорд","type":"Магазин","description":"","latitude":"42.653544","longitude":"23.344392","image":"pic18.jpg","address":"ул.Йордан Йосифов","working_hours":"8:00 - 23:00","account":"normal","phone":""},{"id":"19","name":"Mania Print","type":"Копирен център","description":"","latitude":"42.653815","longitude":"23.346122","image":"pic19.jpg","address":"ул.Йордан Йосифов","working_hours":"8:00 - 24:00","account":"normal","phone":""}]}
